{"type": "FeatureCollection", "features": [{"geometry": {"type": "Point", "coordinates": [-71.105682, 42.333722]}, "type": "Feature", "id": 0, "properties": {"color": "green", "name": "Fenwood Rd"}},
{"geometry": {"type": "Point", "coordinates": [-71.149072, 42.334912]}, "type": "Feature", "id": 1, "properties": {"color": "green", "name": "Reservoir"}},
{"geometry": {"type": "Point", "coordinates": [-71.060327, 42.279712]}, "type": "Feature", "id": 2, "properties": {"color": "red", "name": "Cedar Grove"}},
{"geometry": {"type": "Point", "coordinates": [-71.022476, 42.379759]}, "type": "Feature", "id": 3, "properties": {"color": "blue", "name": "Wood Island"}},
{"geometry": {"type": "Point", "coordinates": [-71.116759, 42.343366]}, "type": "Feature", "id": 4, "properties": {"color": "green", "name": "Saint Paul St"}},
{"geometry": {"type": "Point", "coordinates": [-71.075724, 42.347314]}, "type": "Feature", "id": 5, "properties": {"color": "orange", "name": "Back Bay"}},
{"geometry": {"type": "Point", "coordinates": [-71.070493, 42.361279]}, "type": "Feature", "id": 6, "properties": {"color": "red", "name": "Charles/MGH"}},
{"geometry": {"type": "Point", "coordinates": [-71.057117, 42.342793]}, "type": "Feature", "id": 7, "properties": {"color": "red", "name": "Broadway"}},
{"geometry": {"type": "Point", "coordinates": [-71.007034, 42.232848]}, "type": "Feature", "id": 8, "properties": {"color": "red", "name": "Quincy Adams"}},
{"geometry": {"type": "Point", "coordinates": [-71.099787, 42.322893]}, "type": "Feature", "id": 9, "properties": {"color": "orange", "name": "Jackson Square"}},
{"geometry": {"type": "Point", "coordinates": [-71.124702, 42.351833]}, "type": "Feature", "id": 10, "properties": {"color": "green", "name": "Packards Corner"}},
{"geometry": {"type": "Point", "coordinates": [-71.063229, 42.284219]}, "type": "Feature", "id": 12, "properties": {"color": "red", "name": "Ashmont"}},
{"geometry": {"type": "Point", "coordinates": [-71.252327, 42.337394]}, "type": "Feature", "id": 13, "properties": {"color": "green", "name": "Riverside"}},
{"geometry": {"type": "Point", "coordinates": [-71.067612, 42.270093]}, "type": "Feature", "id": 14, "properties": {"color": "red", "name": "Milton"}},
{"geometry": {"type": "Point", "coordinates": [-71.142449, 42.395261]}, "type": "Feature", "id": 15, "properties": {"color": "red", "name": "Alewife"}},
{"geometry": {"type": "Point", "coordinates": [-71.113377, 42.300023]}, "type": "Feature", "id": 16, "properties": {"color": "orange", "name": "Forest Hills"}},
{"geometry": {"type": "Point", "coordinates": [-71.111406, 42.32996]}, "type": "Feature", "id": 17, "properties": {"color": "green", "name": "Back of the Hill"}},
{"geometry": {"type": "Point", "coordinates": [-71.100235, 42.349126]}, "type": "Feature", "id": 18, "properties": {"color": "green", "name": "Blandford St"}},
{"geometry": {"type": "Point", "coordinates": [-71.142593, 42.343886]}, "type": "Feature", "id": 19, "properties": {"color": "green", "name": "Washington St"}},
{"geometry": {"type": "Point", "coordinates": [-71.029307, 42.274957]}, "type": "Feature", "id": 20, "properties": {"color": "red", "name": "North Quincy"}},
{"geometry": {"type": "Point", "coordinates": [-71.135387, 42.339258]}, "type": "Feature", "id": 21, "properties": {"color": "green", "name": "Washington Sq"}},
{"geometry": {"type": "Point", "coordinates": [-71.076593, 42.370774]}, "type": "Feature", "id": 22, "properties": {"color": "green", "name": "Lechmere"}},
{"geometry": {"type": "Point", "coordinates": [-71.07052, 42.372593]}, "type": "Feature", "id": 23, "properties": {"color": "orange", "name": "Community College"}},
{"geometry": {"type": "Point", "coordinates": [-71.057922, 42.363222]}, "type": "Feature", "id": 24, "properties": {"color": "orange", "name": "Haymarket"}},
{"geometry": {"type": "Point", "coordinates": [-71.166124, 42.339902]}, "type": "Feature", "id": 25, "properties": {"color": "green", "name": "Boston College"}},
{"geometry": {"type": "Point", "coordinates": [-71.129327, 42.339683]}, "type": "Feature", "id": 26, "properties": {"color": "green", "name": "Brandon Hall"}},
{"geometry": {"type": "Point", "coordinates": [-71.11068, 42.32868]}, "type": "Feature", "id": 27, "properties": {"color": "green", "name": "Heath St"}},
{"geometry": {"type": "Point", "coordinates": [-71.062129, 42.361457]}, "type": "Feature", "id": 28, "properties": {"color": "blue", "name": "Bowdoin"}},
{"geometry": {"type": "Point", "coordinates": [-71.141549, 42.337847]}, "type": "Feature", "id": 29, "properties": {"color": "green", "name": "Dean Rd"}},
{"geometry": {"type": "Point", "coordinates": [-71.077056, 42.383434]}, "type": "Feature", "id": 30, "properties": {"color": "orange", "name": "Sullivan Square"}},
{"geometry": {"type": "Point", "coordinates": [-71.053175, 42.311099]}, "type": "Feature", "id": 31, "properties": {"color": "red", "name": "Savin Hill"}},
{"geometry": {"type": "Point", "coordinates": [-71.113885, 42.344125]}, "type": "Feature", "id": 32, "properties": {"color": "green", "name": "Kent St"}},
{"geometry": {"type": "Point", "coordinates": [-71.090437, 42.335742]}, "type": "Feature", "id": 33, "properties": {"color": "orange", "name": "Ruggles"}},
{"geometry": {"type": "Point", "coordinates": [-71.118129, 42.332002]}, "type": "Feature", "id": 34, "properties": {"color": "green", "name": "Brookline Village"}},
{"geometry": {"type": "Point", "coordinates": [-71.00085, 42.20855]}, "type": "Feature", "id": 35, "properties": {"color": "red", "name": "Braintree"}},
{"geometry": {"type": "Point", "coordinates": [-71.138705, 42.338469]}, "type": "Feature", "id": 36, "properties": {"color": "green", "name": "Tappan St"}},
{"geometry": {"type": "Point", "coordinates": [-71.109678, 42.333106]}, "type": "Feature", "id": 37, "properties": {"color": "green", "name": "Mission Park"}},
{"geometry": {"type": "Point", "coordinates": [-71.152961, 42.338145]}, "type": "Feature", "id": 38, "properties": {"color": "green", "name": "Chestnut Hill Ave"}},
{"geometry": {"type": "Point", "coordinates": [-71.131197, 42.350118]}, "type": "Feature", "id": 39, "properties": {"color": "green", "name": "Harvard Ave"}},
{"geometry": {"type": "Point", "coordinates": [-70.990986, 42.413963]}, "type": "Feature", "id": 40, "properties": {"color": "blue", "name": "Wonderland"}},
{"geometry": {"type": "Point", "coordinates": [-71.06461, 42.352337]}, "type": "Feature", "id": 41, "properties": {"color": "green", "name": "Boylston"}},
{"geometry": {"type": "Point", "coordinates": [-71.111129, 42.34487]}, "type": "Feature", "id": 42, "properties": {"color": "green", "name": "Hawes St"}},
{"geometry": {"type": "Point", "coordinates": [-71.060465, 42.355453]}, "type": "Feature", "id": 43, "properties": {"color": "orange", "name": "Downtown Crossing"}},
{"geometry": {"type": "Point", "coordinates": [-71.057421, 42.359065]}, "type": "Feature", "id": 44, "properties": {"color": "blue", "name": "State"}},
{"geometry": {"type": "Point", "coordinates": [-71.065912, 42.293712]}, "type": "Feature", "id": 45, "properties": {"color": "red", "name": "Shawmut"}},
{"geometry": {"type": "Point", "coordinates": [-71.038422, 42.368343]}, "type": "Feature", "id": 46, "properties": {"color": "blue", "name": "Maverick"}},
{"geometry": {"type": "Point", "coordinates": [-71.070888, 42.437134]}, "type": "Feature", "id": 47, "properties": {"color": "orange", "name": "Oak Grove"}},
{"geometry": {"type": "Point", "coordinates": [-71.113833, 42.350759]}, "type": "Feature", "id": 48, "properties": {"color": "green", "name": "Boston University West"}},
{"geometry": {"type": "Point", "coordinates": [-71.092021, 42.267586]}, "type": "Feature", "id": 49, "properties": {"color": "red", "name": "Mattapan"}},
{"geometry": {"type": "Point", "coordinates": [-71.157622, 42.339455]}, "type": "Feature", "id": 50, "properties": {"color": "green", "name": "South St"}},
{"geometry": {"type": "Point", "coordinates": [-71.127031, 42.331133]}, "type": "Feature", "id": 51, "properties": {"color": "green", "name": "Brookline Hills"}},
{"geometry": {"type": "Point", "coordinates": [-71.059195, 42.359868]}, "type": "Feature", "id": 52, "properties": {"color": "blue", "name": "Government Center"}},
{"geometry": {"type": "Point", "coordinates": [-71.118917, 42.373936]}, "type": "Feature", "id": 53, "properties": {"color": "red", "name": "Harvard"}},
{"geometry": {"type": "Point", "coordinates": [-71.146162, 42.341483]}, "type": "Feature", "id": 54, "properties": {"color": "green", "name": "Sutherland Rd"}},
{"geometry": {"type": "Point", "coordinates": [-71.051807, 42.359634]}, "type": "Feature", "id": 55, "properties": {"color": "blue", "name": "Aquarium"}},
{"geometry": {"type": "Point", "coordinates": [-71.125182, 42.340946]}, "type": "Feature", "id": 56, "properties": {"color": "green", "name": "Summit Ave"}},
{"geometry": {"type": "Point", "coordinates": [-71.100052, 42.335898]}, "type": "Feature", "id": 57, "properties": {"color": "green", "name": "Longwood Medical Area"}},
{"geometry": {"type": "Point", "coordinates": [-71.121547, 42.35169]}, "type": "Feature", "id": 58, "properties": {"color": "green", "name": "Babcock St"}},
{"geometry": {"type": "Point", "coordinates": [-71.131304, 42.339474]}, "type": "Feature", "id": 59, "properties": {"color": "green", "name": "Fairbanks St"}},
{"geometry": {"type": "Point", "coordinates": [-71.081401, 42.345503]}, "type": "Feature", "id": 60, "properties": {"color": "green", "name": "Prudential"}},
{"geometry": {"type": "Point", "coordinates": [-71.106804, 42.34989]}, "type": "Feature", "id": 61, "properties": {"color": "green", "name": "Boston University Central"}},
{"geometry": {"type": "Point", "coordinates": [-71.029485, 42.374542]}, "type": "Feature", "id": 62, "properties": {"color": "blue", "name": "Airport"}},
{"geometry": {"type": "Point", "coordinates": [-71.074144, 42.426678]}, "type": "Feature", "id": 63, "properties": {"color": "orange", "name": "Malden"}},
{"geometry": {"type": "Point", "coordinates": [-71.122527, 42.39662]}, "type": "Feature", "id": 64, "properties": {"color": "red", "name": "Davis"}},
{"geometry": {"type": "Point", "coordinates": [-71.052545, 42.321065]}, "type": "Feature", "id": 65, "properties": {"color": "red", "name": "JFK/UMass"}},
{"geometry": {"type": "Point", "coordinates": [-71.107125, 42.310359]}, "type": "Feature", "id": 66, "properties": {"color": "orange", "name": "Green Street"}},
{"geometry": {"type": "Point", "coordinates": [-71.019721, 42.265972]}, "type": "Feature", "id": 67, "properties": {"color": "red", "name": "Wollaston"}},
{"geometry": {"type": "Point", "coordinates": [-71.088717, 42.340307]}, "type": "Feature", "id": 68, "properties": {"color": "green", "name": "Northeastern"}},
{"geometry": {"type": "Point", "coordinates": [-71.077463, 42.349991]}, "type": "Feature", "id": 69, "properties": {"color": "green", "name": "Copley"}},
{"geometry": {"type": "Point", "coordinates": [-71.067666, 42.366664]}, "type": "Feature", "id": 70, "properties": {"color": "green", "name": "Science Park"}},
{"geometry": {"type": "Point", "coordinates": [-71.083025, 42.267772]}, "type": "Feature", "id": 71, "properties": {"color": "red", "name": "Valley Rd"}},
{"geometry": {"type": "Point", "coordinates": [-71.061251, 42.365551]}, "type": "Feature", "id": 72, "properties": {"color": "orange", "name": "North Station"}},
{"geometry": {"type": "Point", "coordinates": [-71.083072, 42.341762]}, "type": "Feature", "id": 73, "properties": {"color": "orange", "name": "Massachusetts Ave."}},
{"geometry": {"type": "Point", "coordinates": [-71.070817, 42.351847]}, "type": "Feature", "id": 74, "properties": {"color": "green", "name": "Arlington"}},
{"geometry": {"type": "Point", "coordinates": [-71.004798, 42.250879]}, "type": "Feature", "id": 75, "properties": {"color": "red", "name": "Quincy Center"}},
{"geometry": {"type": "Point", "coordinates": [-71.103866, 42.349569]}, "type": "Feature", "id": 76, "properties": {"color": "green", "name": "Boston University East"}},
{"geometry": {"type": "Point", "coordinates": [-71.084529, 42.342919]}, "type": "Feature", "id": 77, "properties": {"color": "green", "name": "Symphony"}},
{"geometry": {"type": "Point", "coordinates": [-70.992363, 42.39745]}, "type": "Feature", "id": 78, "properties": {"color": "blue", "name": "Beachmont"}},
{"geometry": {"type": "Point", "coordinates": [-71.062202, 42.356332]}, "type": "Feature", "id": 79, "properties": {"color": "red", "name": "Park St"}},
{"geometry": {"type": "Point", "coordinates": [-71.062453, 42.272253]}, "type": "Feature", "id": 80, "properties": {"color": "red", "name": "Butler"}},
{"geometry": {"type": "Point", "coordinates": [-71.140849, 42.335805]}, "type": "Feature", "id": 81, "properties": {"color": "green", "name": "Beaconsfield"}},
{"geometry": {"type": "Point", "coordinates": [-71.140224, 42.348366]}, "type": "Feature", "id": 82, "properties": {"color": "green", "name": "Warren St"}},
{"geometry": {"type": "Point", "coordinates": [-71.088148, 42.347953]}, "type": "Feature", "id": 83, "properties": {"color": "green", "name": "Hynes Convention Center"}},
{"geometry": {"type": "Point", "coordinates": [-71.120888, 42.342226]}, "type": "Feature", "id": 84, "properties": {"color": "green", "name": "Coolidge Corner"}},
{"geometry": {"type": "Point", "coordinates": [-71.107385, 42.345947]}, "type": "Feature", "id": 85, "properties": {"color": "green", "name": "Saint Mary's St"}},
{"geometry": {"type": "Point", "coordinates": [-71.150459, 42.340839]}, "type": "Feature", "id": 86, "properties": {"color": "green", "name": "Chiswick Rd"}},
{"geometry": {"type": "Point", "coordinates": [-71.056979, 42.329752]}, "type": "Feature", "id": 87, "properties": {"color": "red", "name": "Andrew"}},
{"geometry": {"type": "Point", "coordinates": [-71.145357, 42.337049]}, "type": "Feature", "id": 88, "properties": {"color": "green", "name": "Englewood Ave"}},
{"geometry": {"type": "Point", "coordinates": [-71.087436, 42.267622]}, "type": "Feature", "id": 89, "properties": {"color": "red", "name": "Capen St"}},
{"geometry": {"type": "Point", "coordinates": [-71.112004, 42.331686]}, "type": "Feature", "id": 90, "properties": {"color": "green", "name": "Riverway"}},
{"geometry": {"type": "Point", "coordinates": [-71.230712, 42.325981]}, "type": "Feature", "id": 91, "properties": {"color": "green", "name": "Waban"}},
{"geometry": {"type": "Point", "coordinates": [-71.118783, 42.351345]}, "type": "Feature", "id": 92, "properties": {"color": "green", "name": "Pleasant St"}},
{"geometry": {"type": "Point", "coordinates": [-71.062759, 42.352529]}, "type": "Feature", "id": 93, "properties": {"color": "orange", "name": "Chinatown"}},
{"geometry": {"type": "Point", "coordinates": [-71.134551, 42.348542]}, "type": "Feature", "id": 94, "properties": {"color": "green", "name": "Griggs St"}},
{"geometry": {"type": "Point", "coordinates": [-71.063877, 42.349504]}, "type": "Feature", "id": 95, "properties": {"color": "orange", "name": "Tufts Medical Center"}},
{"geometry": {"type": "Point", "coordinates": [-71.086058, 42.362427]}, "type": "Feature", "id": 96, "properties": {"color": "red", "name": "Kendall/MIT"}},
{"geometry": {"type": "Point", "coordinates": [-71.095125, 42.337732]}, "type": "Feature", "id": 97, "properties": {"color": "green", "name": "Museum of Fine Arts"}},
{"geometry": {"type": "Point", "coordinates": [-71.119159, 42.388353]}, "type": "Feature", "id": 98, "properties": {"color": "red", "name": "Porter Square"}},
{"geometry": {"type": "Point", "coordinates": [-71.095128, 42.348783]}, "type": "Feature", "id": 99, "properties": {"color": "green", "name": "Kenmore"}},
{"geometry": {"type": "Point", "coordinates": [-71.076969, 42.405202]}, "type": "Feature", "id": 100, "properties": {"color": "orange", "name": "Wellington"}},
{"geometry": {"type": "Point", "coordinates": [-70.99256, 42.408389]}, "type": "Feature", "id": 101, "properties": {"color": "blue", "name": "Revere Beach"}},
{"geometry": {"type": "Point", "coordinates": [-71.217023, 42.318744]}, "type": "Feature", "id": 102, "properties": {"color": "green", "name": "Eliot"}},
{"geometry": {"type": "Point", "coordinates": [-70.997678, 42.390232]}, "type": "Feature", "id": 103, "properties": {"color": "blue", "name": "Suffolk Downs"}},
{"geometry": {"type": "Point", "coordinates": [-71.110215, 42.341042]}, "type": "Feature", "id": 104, "properties": {"color": "green", "name": "Longwood Station"}},
{"geometry": {"type": "Point", "coordinates": [-71.24434, 42.333336]}, "type": "Feature", "id": 105, "properties": {"color": "green", "name": "Woodland"}},
{"geometry": {"type": "Point", "coordinates": [-71.061516, 42.299992]}, "type": "Feature", "id": 106, "properties": {"color": "red", "name": "Fields Corner"}},
{"geometry": {"type": "Point", "coordinates": [-71.055428, 42.352573]}, "type": "Feature", "id": 107, "properties": {"color": "red", "name": "South Station"}},
{"geometry": {"type": "Point", "coordinates": [-71.104021, 42.317251]}, "type": "Feature", "id": 108, "properties": {"color": "orange", "name": "Stony Brook"}},
{"geometry": {"type": "Point", "coordinates": [-71.004941, 42.386769]}, "type": "Feature", "id": 109, "properties": {"color": "blue", "name": "Orient Heights"}},
{"geometry": {"type": "Point", "coordinates": [-71.205966, 42.321539]}, "type": "Feature", "id": 110, "properties": {"color": "green", "name": "Newton Highlands"}},
{"geometry": {"type": "Point", "coordinates": [-71.073249, 42.269965]}, "type": "Feature", "id": 111, "properties": {"color": "red", "name": "Central Ave"}},
{"geometry": {"type": "Point", "coordinates": [-71.16529, 42.326601]}, "type": "Feature", "id": 112, "properties": {"color": "green", "name": "Chestnut Hill Station D"}},
{"geometry": {"type": "Point", "coordinates": [-71.149406, 42.336197]}, "type": "Feature", "id": 113, "properties": {"color": "green", "name": "Cleveland Circle"}},
{"geometry": {"type": "Point", "coordinates": [-71.137888, 42.348468]}, "type": "Feature", "id": 114, "properties": {"color": "green", "name": "Allston St"}},
{"geometry": {"type": "Point", "coordinates": [-71.095555, 42.331388]}, "type": "Feature", "id": 115, "properties": {"color": "orange", "name": "Roxbury Crossing"}},
{"geometry": {"type": "Point", "coordinates": [-71.103474, 42.365326]}, "type": "Feature", "id": 116, "properties": {"color": "red", "name": "Central Square"}},
{"geometry": {"type": "Point", "coordinates": [-71.10437, 42.334268]}, "type": "Feature", "id": 117, "properties": {"color": "green", "name": "Brigham Circle"}},
{"geometry": {"type": "Point", "coordinates": [-71.104156, 42.345347]}, "type": "Feature", "id": 118, "properties": {"color": "green", "name": "Fenway"}},
{"geometry": {"type": "Point", "coordinates": [-71.194444, 42.328354]}, "type": "Feature", "id": 119, "properties": {"color": "green", "name": "Newton Centre"}}]}